City_ID,City,Lat,Lng,Max Temp,Humidity,Cloudiness,Wind Speed,Country,Date
0,Vila Velha,-20.3297,-40.2925,71.94,92,1,3.98,BR,2022-04-30 04:01:19
1,Chapais,49.7834,-74.8492,26.8,94,8,5.86,CA,2022-04-30 04:04:06
2,Kamenka,51.3223,42.7678,44.51,79,10,8.86,RU,2022-04-30 04:02:05
3,Port Elizabeth,-33.918,25.5701,61.32,73,0,10.0,ZA,2022-04-30 03:59:17
4,Rikitea,-23.1203,-134.9692,77.13,68,100,16.15,PF,2022-04-30 04:04:06
5,Sinnamary,5.3833,-52.95,78.94,82,64,11.65,GF,2022-04-30 04:04:07
6,Sao Filipe,14.8961,-24.4956,70.95,69,9,8.03,CV,2022-04-30 04:01:42
7,Maragogi,-9.0122,-35.2225,75.81,80,100,4.21,BR,2022-04-30 04:04:07
8,Waharoa,-37.7667,175.7667,67.98,63,2,7.36,NZ,2022-04-30 04:04:08
9,Caxito,-8.5785,13.6643,72.93,99,100,0.85,AO,2022-04-30 04:04:08
10,Albany,42.6001,-73.9662,43.79,46,1,6.91,US,2022-04-30 04:01:04
11,Tsaratanana,-16.7833,47.65,68.95,81,1,6.13,MG,2022-04-30 04:04:09
12,Meulaboh,4.1363,96.1285,85.62,68,100,0.83,ID,2022-04-30 04:04:09
13,Torbay,47.6666,-52.7314,38.88,95,100,3.0,CA,2022-04-30 04:03:19
14,Iqaluit,63.7506,-68.5145,0.75,91,40,3.36,CA,2022-04-30 04:00:33
15,Iracoubo,5.4802,-53.2011,79.05,80,57,11.79,GF,2022-04-30 04:04:09
16,Hilo,19.7297,-155.09,75.27,88,100,8.05,US,2022-04-30 04:04:10
17,Longyearbyen,78.2186,15.6401,6.64,72,40,8.05,SJ,2022-04-30 04:02:07
18,Saint-Philippe,-21.3585,55.7679,78.22,82,44,14.45,RE,2022-04-30 04:02:59
19,Bonthe,7.5264,-12.505,80.29,78,88,2.62,SL,2022-04-30 04:04:10
20,Tapa,59.2606,25.9586,32.77,69,15,0.76,EE,2022-04-30 04:04:11
21,Christchurch,-43.5333,172.6333,62.94,75,3,14.97,NZ,2022-04-30 04:00:01
22,Mastic Beach,40.7668,-72.8521,52.99,35,0,3.44,US,2022-04-30 04:04:11
23,Kahului,20.8947,-156.47,80.62,66,40,21.85,US,2022-04-30 04:04:11
24,Busselton,-33.65,115.3333,66.18,54,0,2.8,AU,2022-04-30 04:04:12
25,Faanui,-16.4833,-151.75,81.36,72,13,17.05,PF,2022-04-30 04:04:12
26,Colares,38.7992,-9.4469,62.78,69,28,15.01,PT,2022-04-30 04:04:13
27,Atuona,-9.8,-139.0333,79.12,73,100,15.93,PF,2022-04-30 04:04:13
28,Riyadh,24.6877,46.7219,77.14,40,1,6.91,SA,2022-04-30 04:00:55
29,Port Alfred,-33.5906,26.891,57.18,80,41,5.01,ZA,2022-04-30 04:04:14
30,Great Falls,47.5002,-111.3008,42.17,75,0,6.91,US,2022-04-30 04:04:14
31,Yamada,39.4667,141.95,50.45,73,4,1.34,JP,2022-04-30 04:04:14
32,Norman Wells,65.282,-126.8329,37.09,87,65,5.39,CA,2022-04-30 04:04:15
33,Lasa,46.6166,10.7002,47.35,96,100,2.01,IT,2022-04-30 04:04:15
34,Labuhan,-6.8844,112.2051,85.42,72,59,3.96,ID,2022-04-30 04:04:15
35,Avarua,-21.2078,-159.775,80.65,83,40,13.8,CK,2022-04-30 04:04:16
36,Kapaa,22.0752,-159.319,80.58,82,49,5.01,US,2022-04-30 04:00:20
37,Alugan,12.2188,125.4808,84.61,71,100,7.14,PH,2022-04-30 04:04:16
38,Sieradz,51.5958,18.7302,34.25,70,27,2.33,PL,2022-04-30 03:59:25
39,Yar-Sale,66.8333,70.8333,25.07,81,100,17.11,RU,2022-04-30 04:04:17
40,Igarka,67.4667,86.5833,22.75,76,10,9.71,RU,2022-04-30 04:04:17
41,Qaanaaq,77.484,-69.3632,7.86,71,52,8.34,GL,2022-04-30 03:59:23
42,Valer,60.6785,11.8331,35.85,69,59,1.7,NO,2022-04-30 04:04:18
43,Ribeira Grande,38.5167,-28.7,61.83,88,11,15.88,PT,2022-04-30 04:04:18
44,Vaini,-21.2,-175.2,75.36,100,100,6.91,TO,2022-04-30 04:04:18
45,Kalachinsk,55.0529,74.5751,61.32,62,31,9.82,RU,2022-04-30 04:04:19
46,Nikolskoye,59.7035,30.7861,36.88,76,19,4.99,RU,2022-04-30 04:03:02
47,Greymouth,-42.4667,171.2,59.07,81,88,5.1,NZ,2022-04-30 04:04:34
48,Kodiak,57.79,-152.4072,42.31,87,100,29.93,US,2022-04-30 04:04:35
49,Klaksvik,62.2266,-6.589,45.52,76,100,9.04,FO,2022-04-30 04:04:35
50,Tuktoyaktuk,69.4541,-133.0374,33.31,85,100,8.86,CA,2022-04-30 04:04:35
51,Ushuaia,-54.8,-68.3,37.06,81,20,8.05,AR,2022-04-30 04:04:36
52,Myaundzha,63.0494,147.1858,28.18,83,88,0.74,RU,2022-04-30 04:04:36
53,Upernavik,72.7868,-56.1549,12.76,88,100,23.02,GL,2022-04-30 04:04:36
54,Ketchikan,55.3422,-131.6461,48.18,66,40,3.44,US,2022-04-30 04:04:37
55,Baghdad,33.3406,44.4009,73.31,60,0,6.91,IQ,2022-04-30 04:04:00
56,Muros,42.7762,-9.0603,52.84,91,28,3.53,ES,2022-04-30 04:04:37
57,Hofn,64.2539,-15.2082,45.79,66,11,4.61,IS,2022-04-30 04:04:38
58,Narsaq,60.9167,-46.05,39.42,80,100,2.21,GL,2022-04-30 04:04:38
59,Launceston,-41.45,147.1667,60.62,53,40,20.71,AU,2022-04-30 04:04:38
60,Carnarvon,-24.8667,113.6333,81.91,43,0,12.75,AU,2022-04-30 04:04:39
61,Nam Som,17.7704,102.1895,85.3,51,85,3.62,TH,2022-04-30 04:04:39
62,Maniitsoq,65.4167,-52.9,9.61,76,45,10.07,GL,2022-04-30 04:04:39
63,Marrakesh,31.6315,-8.0083,59.07,63,0,1.14,MA,2022-04-30 04:03:03
64,Cape Town,-33.9258,18.4232,57.11,91,19,1.01,ZA,2022-04-30 04:01:17
65,Waipawa,-41.4122,175.5153,59.95,61,0,6.02,NZ,2022-04-30 04:04:40
66,Qasigiannguit,68.8193,-51.1922,19.65,83,100,8.9,GL,2022-04-30 04:04:40
67,Cherskiy,68.75,161.3,14.74,86,96,6.64,RU,2022-04-30 04:04:41
68,Punta Arenas,-53.15,-70.9167,38.57,77,95,2.68,CL,2022-04-30 04:04:12
69,Hermanus,-34.4187,19.2345,53.8,81,56,7.09,ZA,2022-04-30 04:04:41
70,Puerto Ayora,-0.7393,-90.3518,71.38,92,55,5.19,EC,2022-04-30 04:03:13
71,Hithadhoo,-0.6,73.0833,85.1,72,55,9.26,MV,2022-04-30 04:04:19
72,Castro,-24.7911,-50.0119,57.06,97,99,8.01,BR,2022-04-30 04:04:42
73,Provideniya,64.3833,-173.3,33.85,89,99,12.35,RU,2022-04-30 04:01:48
74,Fortuna,40.5982,-124.1573,56.66,73,100,0.0,US,2022-04-30 04:01:47
75,Lata,40.1629,-8.3327,55.08,73,0,2.01,PT,2022-04-30 04:04:42
76,Codrington,-38.2667,141.9667,62.26,49,97,19.48,AU,2022-04-30 04:04:43
77,Butaritari,3.0707,172.7902,81.54,77,48,9.15,KI,2022-04-30 04:02:53
78,Qaqortoq,60.7167,-46.0333,36.97,89,99,2.21,GL,2022-04-30 04:04:43
79,Sabha,27.0377,14.4283,70.2,26,0,14.5,LY,2022-04-30 04:04:44
80,Karatuzskoye,53.6072,92.8667,65.12,35,100,5.55,RU,2022-04-30 04:04:44
81,Bluff,-46.6,168.3333,65.8,73,99,8.08,NZ,2022-04-30 04:04:44
82,Hobart,-42.8794,147.3294,60.66,53,40,14.97,AU,2022-04-30 04:00:03
83,Zhezkazgan,47.8043,67.7144,62.58,39,0,6.71,KZ,2022-04-30 04:04:45
84,Beringovskiy,63.05,179.3167,32.2,96,99,15.32,RU,2022-04-30 04:02:47
85,Aksarka,66.5606,67.7975,26.1,90,38,15.5,RU,2022-04-30 04:04:45
86,Cleveland,41.4995,-81.6954,48.65,31,0,9.22,US,2022-04-30 04:04:46
87,Airai,-8.9266,125.4092,77.65,45,79,3.74,TL,2022-04-30 04:04:46
88,Salinopolis,-0.6136,-47.3561,78.26,89,99,8.88,BR,2022-04-30 04:04:46
89,Souillac,-20.5167,57.5167,75.96,71,0,9.82,MU,2022-04-30 04:04:47
90,Vardo,70.3705,31.1107,29.01,64,97,24.47,NO,2022-04-30 04:04:47
91,Tres De Maio,-27.7733,-54.24,57.15,75,44,8.93,BR,2022-04-30 04:04:47
92,New Norfolk,-42.7826,147.0587,60.71,61,51,4.0,AU,2022-04-30 04:04:48
93,Chuka,-0.3332,37.6459,59.13,89,100,4.7,KE,2022-04-30 04:05:03
94,Nara,34.6851,135.8049,63.97,37,5,3.87,JP,2022-04-30 04:02:06
95,Bud,39.447,-86.1758,62.55,67,100,11.83,US,2022-04-30 04:05:04
96,Beni,0.5,29.4667,59.92,99,100,2.62,CD,2022-04-30 04:05:04
97,Russellville,35.2784,-93.1338,74.14,60,0,4.61,US,2022-04-30 04:05:04
98,Stawell,-37.05,142.7667,62.06,41,79,15.12,AU,2022-04-30 04:05:05
99,Jamestown,42.097,-79.2353,44.24,50,0,1.01,US,2022-04-30 04:05:05
100,Yaring,6.8662,101.3689,85.28,68,83,1.43,TH,2022-04-30 04:05:06
101,Pathein,16.7833,94.7333,96.73,39,78,7.38,MM,2022-04-30 04:05:06
102,Marsa Matruh,31.3525,27.2453,63.55,88,1,14.05,EG,2022-04-30 04:05:06
103,Barrow,71.2906,-156.7887,17.62,79,100,14.97,US,2022-04-30 04:04:35
104,Basco,20.4487,121.9702,82.99,70,89,9.35,PH,2022-04-30 04:05:07
105,Zheleznodorozhnyy,55.7503,38.0042,37.22,77,81,9.44,RU,2022-04-30 04:05:07
106,Katsuura,35.1333,140.3,60.82,61,24,19.01,JP,2022-04-30 04:05:08
107,Nome,64.5011,-165.4064,42.17,71,95,11.52,US,2022-04-30 04:01:18
108,Mataura,-46.1927,168.8643,65.48,70,89,2.77,NZ,2022-04-30 04:05:08
109,Caohe,30.2297,115.4335,60.28,81,100,4.12,CN,2022-04-30 04:05:09
110,Bharuch,21.7,72.9667,95.59,27,0,8.46,IN,2022-04-30 04:00:50
111,Yellowknife,62.456,-114.3525,32.56,63,11,8.01,CA,2022-04-30 04:03:44
112,Ixtapa,20.7,-105.2,69.24,56,0,3.02,MX,2022-04-30 04:02:17
113,Acarau,-2.8856,-40.12,78.19,83,100,7.7,BR,2022-04-30 04:05:09
114,Mount Darwin,-16.7725,31.5838,57.02,88,7,1.01,ZW,2022-04-30 04:05:10
115,Belyy Yar,53.6039,91.3903,64.85,31,0,2.24,RU,2022-04-30 04:05:10
116,Itacoatiara,-3.1431,-58.4442,73.78,97,100,3.24,BR,2022-04-30 04:03:43
117,Sarangani,5.4033,125.4636,79.25,81,100,3.53,PH,2022-04-30 04:05:11
118,Agra,27.1833,78.0167,103.62,9,8,12.08,IN,2022-04-30 04:05:11
119,Lobito,-12.3481,13.5456,76.21,88,91,3.04,AO,2022-04-30 04:05:11
120,Arraial Do Cabo,-22.9661,-42.0278,75.11,87,3,9.98,BR,2022-04-30 04:01:25
121,Georgetown,5.4112,100.3354,89.53,70,40,5.75,MY,2022-04-30 04:05:12
122,Auki,-8.7676,160.7034,82.83,75,93,2.48,SB,2022-04-30 04:05:12
123,Evensk,61.95,159.2333,41.54,60,20,10.04,RU,2022-04-30 04:05:13
124,Leshukonskoye,64.8989,45.7622,27.0,78,65,6.2,RU,2022-04-30 04:05:13
125,Ejea De Los Caballeros,42.1263,-1.1372,55.62,89,100,7.85,ES,2022-04-30 04:05:13
126,Balkanabat,39.5108,54.3671,76.55,45,100,2.26,TM,2022-04-30 04:05:14
127,Poum,-20.2333,164.0167,77.32,71,49,10.78,NC,2022-04-30 04:05:14
128,Saint-Francois,46.4154,3.9054,44.04,100,100,3.44,FR,2022-04-30 04:05:15
129,Saint George,37.1041,-113.5841,70.39,17,0,6.91,US,2022-04-30 04:05:14
130,Reus,41.1561,1.1069,60.55,69,0,2.3,ES,2022-04-30 04:05:15
131,Rawalpindi,33.6007,73.0679,89.24,33,3,5.01,PK,2022-04-30 04:01:32
132,Baijiantan,45.6333,85.1833,71.47,12,65,12.95,CN,2022-04-30 04:05:16
133,Ancud,-41.8697,-73.8203,42.58,82,78,1.7,CL,2022-04-30 04:05:16
134,Oruro,-17.9833,-67.15,47.52,72,90,7.14,BO,2022-04-30 04:05:16
135,Ostrovnoy,68.0531,39.5131,21.97,85,100,17.92,RU,2022-04-30 04:05:17
136,Sao Joao Da Barra,-21.6403,-41.0511,71.8,88,2,5.19,BR,2022-04-30 04:05:17
137,Tasiilaq,65.6145,-37.6368,28.38,88,59,7.02,GL,2022-04-30 04:05:17
138,Imeni Poliny Osipenko,52.4201,136.4853,43.45,42,32,9.51,RU,2022-04-30 04:05:33
139,Bandarbeyla,9.4942,50.8122,84.2,74,26,1.88,SO,2022-04-30 04:05:34
140,Semnan,35.5729,53.3971,65.1,55,100,10.47,IR,2022-04-30 04:05:34
141,Deputatskiy,69.3,139.9,22.01,79,34,4.07,RU,2022-04-30 04:05:34
142,Fairbanks,64.8378,-147.7164,57.16,31,0,0.0,US,2022-04-30 04:05:35
143,Shangqiu,34.45,115.65,67.06,39,100,15.97,CN,2022-04-30 04:05:35
144,Kamra,33.7473,73.5111,82.96,24,2,4.61,PK,2022-04-30 04:05:35
145,Panguna,-6.3164,155.4848,75.45,85,56,1.72,PG,2022-04-30 04:05:36
146,Esperance,-33.8667,121.9,65.16,61,23,7.99,AU,2022-04-30 04:05:36
147,Khatanga,71.9667,102.5,16.09,88,99,16.82,RU,2022-04-30 04:05:37
148,Dikson,73.5069,80.5464,18.25,93,100,20.04,RU,2022-04-30 04:05:37
149,Krasnoselkup,65.7,82.4667,22.75,74,4,9.31,RU,2022-04-30 04:05:37
150,Thunder Bay,48.4001,-89.3168,34.32,84,99,6.46,CA,2022-04-30 04:03:22
151,Saskylakh,71.9167,114.0833,32.59,94,100,14.7,RU,2022-04-30 04:03:19
152,Lazaro Cardenas,17.9583,-102.2,75.78,76,8,4.27,MX,2022-04-30 04:05:38
153,Matveyevka,52.15,56.1833,47.39,60,100,10.6,RU,2022-04-30 04:05:38
154,Havelock,34.8791,-76.9013,64.35,82,73,2.86,US,2022-04-30 04:05:39
155,Port Hawkesbury,45.6169,-61.3485,39.18,98,100,5.75,CA,2022-04-30 04:05:39
156,Kanye,-24.9667,25.3327,55.76,75,55,4.03,BW,2022-04-30 04:05:39
157,Adrar,20.5022,-10.0711,70.74,20,18,9.84,MR,2022-04-30 04:05:40
158,Muncar,-8.4333,114.3333,86.05,68,76,4.43,ID,2022-04-30 04:05:40
159,Port Blair,11.6667,92.75,87.85,61,99,3.31,IN,2022-04-30 04:05:40
160,Acapulco,16.8634,-99.8901,80.42,83,20,6.91,MX,2022-04-30 04:03:29
161,Palauig,15.435,119.9045,87.98,62,100,8.03,PH,2022-04-30 04:05:41
162,Cabo San Lucas,22.8909,-109.9124,78.1,62,21,14.76,MX,2022-04-30 04:05:41
163,Talnakh,69.4865,88.3972,16.21,86,81,8.52,RU,2022-04-30 04:05:42
164,Colac,-38.3333,143.5833,56.17,57,84,12.93,AU,2022-04-30 04:05:42
165,Nanortalik,60.1432,-45.2371,37.54,88,82,4.14,GL,2022-04-30 04:05:43
166,Itamaraca,-7.7478,-34.8256,77.05,80,87,7.2,BR,2022-04-30 04:05:43
167,Mahebourg,-20.4081,57.7,78.26,69,2,10.33,MU,2022-04-30 04:04:16
168,Bethel,41.3712,-73.414,49.77,29,0,4.61,US,2022-04-30 04:05:43
169,Hamilton,39.1834,-84.5333,63.45,46,100,11.5,US,2022-04-30 04:05:44
170,Broome,42.2506,-75.833,36.55,70,1,1.01,US,2022-04-30 04:05:44
171,Port Hardy,50.6996,-127.4199,48.38,77,100,16.37,CA,2022-04-30 04:05:45
172,Kaspiyskiy,45.3929,47.3707,57.09,84,100,10.98,RU,2022-04-30 04:05:45
173,Jan Kempdorp,-27.9225,24.8305,50.79,34,1,2.53,ZA,2022-04-30 04:05:45
174,Flinders,-34.5833,150.8552,68.18,71,100,8.01,AU,2022-04-30 04:05:46
175,Marzuq,14.4,46.4667,75.34,52,2,0.36,YE,2022-04-30 04:04:20
176,Sioux Lookout,50.1001,-91.917,36.27,99,100,6.62,CA,2022-04-30 04:05:46
177,Praia Da Vitoria,38.7333,-27.0667,61.75,98,20,11.9,PT,2022-04-30 04:05:46
178,Kokopo,-4.352,152.2633,82.9,69,97,2.62,PG,2022-04-30 04:05:47
179,Gornyy,55.1153,83.9059,65.23,40,100,14.0,RU,2022-04-30 04:05:47
180,Mar Del Plata,-38.0023,-57.5575,45.88,73,0,5.75,AR,2022-04-30 04:05:48
181,Nabire,-3.3667,135.4833,81.28,87,100,3.89,ID,2022-04-30 04:05:48
182,Sitka,57.0531,-135.33,49.89,46,0,3.44,US,2022-04-30 04:05:48
183,Kosh-Agach,50.0,88.6667,48.92,26,56,2.57,RU,2022-04-30 04:05:49
184,Saldanha,-33.0117,17.9442,57.9,84,60,6.62,ZA,2022-04-30 04:06:04
185,Chuy,-33.6971,-53.4616,49.41,77,14,2.75,UY,2022-04-30 04:06:05
186,Magadan,59.5667,150.8,47.53,60,17,4.65,RU,2022-04-30 04:06:05
187,Preeceville,51.95,-102.6677,38.05,93,100,5.59,CA,2022-04-30 04:06:05
188,Nyurba,63.2842,118.3319,44.56,79,95,12.5,RU,2022-04-30 04:06:06
189,Alta Floresta,-9.8756,-56.0861,69.46,94,97,2.06,BR,2022-04-30 04:01:24
190,Ahipara,-35.1667,173.1667,66.49,69,47,10.85,NZ,2022-04-30 04:06:06
191,Namibe,-15.1961,12.1522,72.05,77,35,3.96,AO,2022-04-30 04:06:07
192,Jinchang,38.4953,102.1739,48.33,35,95,5.1,CN,2022-04-30 04:06:07
193,Bredasdorp,-34.5322,20.0403,54.05,87,20,6.98,ZA,2022-04-30 04:02:37
194,Lompoc,34.6391,-120.4579,60.94,77,0,9.22,US,2022-04-30 04:03:33
195,Vestmannaeyjar,63.4427,-20.2734,45.64,82,9,11.12,IS,2022-04-30 04:06:08
196,Khovu-Aksy,51.1333,93.6,57.96,26,52,6.02,RU,2022-04-30 04:06:08
197,Caravelas,-17.7125,-39.2481,73.27,85,0,2.51,BR,2022-04-30 04:06:08
198,San Ramon,37.7799,-121.978,61.27,65,0,8.05,US,2022-04-30 04:05:35
199,Grand Gaube,-20.0064,57.6608,78.39,68,5,4.0,MU,2022-04-30 04:06:09
200,Fuyu,45.1833,124.8167,38.26,84,100,20.71,CN,2022-04-30 04:06:09
201,Kasempa,-13.4584,25.8338,61.36,76,98,4.05,ZM,2022-04-30 04:01:29
202,East London,-33.0153,27.9116,62.42,67,5,15.01,ZA,2022-04-30 04:01:23
203,Kangaatsiaq,68.3065,-53.4641,19.04,74,87,19.98,GL,2022-04-30 04:06:10
204,Wanning,18.8003,110.3967,78.55,85,100,9.1,CN,2022-04-30 04:06:10
205,Nhulunbuy,-12.2333,136.7667,90.21,51,40,12.66,AU,2022-04-30 04:06:11
206,Chancay,-11.5714,-77.2672,66.87,86,94,3.18,PE,2022-04-30 04:06:11
207,Hambantota,6.1241,81.1185,86.34,84,20,6.91,LK,2022-04-30 04:06:12
208,Thompson,55.7435,-97.8558,38.97,93,100,2.57,CA,2022-04-30 04:01:24
209,Novyy Urengoy,66.0833,76.6333,21.34,86,26,12.15,RU,2022-04-30 04:06:12
210,Ibra,22.6906,58.5334,88.9,29,7,4.72,OM,2022-04-30 04:06:12
211,Celestun,20.8667,-90.4,77.7,77,25,13.89,MX,2022-04-30 04:06:13
212,Bambous Virieux,-20.3428,57.7575,78.22,69,4,10.09,MU,2022-04-30 04:01:37
213,Husavik,66.0449,-17.3389,41.97,83,26,3.74,IS,2022-04-30 04:06:13
214,Maralal,1.0968,36.698,57.83,86,86,4.29,KE,2022-04-30 04:06:14
215,Houma,29.5958,-90.7195,69.01,83,0,4.61,US,2022-04-30 04:06:14
216,Srednekolymsk,67.45,153.6833,24.24,77,98,3.96,RU,2022-04-30 04:06:14
217,Balykshi,47.0667,51.8667,55.4,54,40,24.61,KZ,2022-04-30 04:06:15
218,Fez,34.0372,-4.9998,52.05,76,0,11.5,MA,2022-04-30 04:06:15
219,Bacong,9.2464,123.2956,85.89,69,31,10.67,PH,2022-04-30 04:06:16
220,Mus,39.0,41.75,44.64,79,48,1.83,TR,2022-04-30 04:06:16
221,Mount Isa,-20.7333,139.5,89.37,27,12,13.8,AU,2022-04-30 04:06:16
222,Kaitangata,-46.2817,169.8464,58.69,71,95,3.44,NZ,2022-04-30 04:06:17
223,Winslow,35.0242,-110.6974,55.58,8,0,3.44,US,2022-04-30 04:06:17
224,Grahamstown,-33.3042,26.5328,50.95,86,1,8.46,ZA,2022-04-30 04:06:18
225,Ciudad Del Maiz,22.4,-99.6,67.17,89,37,6.13,MX,2022-04-30 04:06:18
226,Pevek,69.7008,170.3133,18.9,83,100,10.76,RU,2022-04-30 04:03:05
227,Ilulissat,69.2167,-51.1,19.42,73,75,20.71,GL,2022-04-30 04:06:18
228,Patancheru,17.5314,78.265,94.06,22,8,9.51,IN,2022-04-30 04:06:19
229,Turayf,31.6725,38.6637,69.06,47,47,15.77,SA,2022-04-30 04:06:19
230,Tuatapere,-46.1333,167.6833,61.48,73,99,8.03,NZ,2022-04-30 04:06:35
231,Tpig,41.7801,47.589,48.7,92,99,1.16,RU,2022-04-30 04:06:35
232,Altamira,-3.2033,-52.2064,72.5,99,100,4.85,BR,2022-04-30 04:06:35
233,Sorland,67.667,12.6934,37.35,59,100,18.59,NO,2022-04-30 04:06:36
234,Creel,27.75,-107.6333,45.79,29,0,4.36,MX,2022-04-30 04:06:36
235,Moses Lake,47.1301,-119.2781,49.87,48,93,7.72,US,2022-04-30 04:01:55
236,Chandbali,20.7833,86.7667,97.18,43,14,16.22,IN,2022-04-30 04:06:37
237,Bengkulu,-3.8004,102.2655,84.4,69,16,6.06,ID,2022-04-30 04:06:37
238,Northam,51.0333,-4.2167,42.62,77,100,6.98,GB,2022-04-30 04:06:37
239,Raga,8.4596,25.678,77.79,64,100,7.74,SS,2022-04-30 04:06:38
240,Jaciara,-15.9653,-54.9683,69.71,62,0,1.59,BR,2022-04-30 04:06:38
241,Carutapera,-1.195,-46.02,76.03,92,86,5.01,BR,2022-04-30 04:06:39
242,Okhotsk,59.3833,143.3,40.08,71,80,3.44,RU,2022-04-30 04:06:39
243,Ushtobe,45.2514,77.9838,72.73,15,96,1.61,KZ,2022-04-30 04:06:39
244,College,64.8569,-147.8028,57.15,32,20,0.0,US,2022-04-30 04:06:40
245,Salalah,17.0151,54.0924,86.09,70,0,2.3,OM,2022-04-30 04:04:29
246,Corrente,-3.7367,-43.3394,71.15,98,80,1.99,BR,2022-04-30 04:06:40
247,San Jeronimo,-11.9472,-75.2829,48.45,82,79,2.21,PE,2022-04-30 04:06:40
248,Port Hedland,-20.3167,118.5667,82.45,47,75,16.11,AU,2022-04-30 04:06:41
249,Vung Tau,10.346,107.0843,81.81,76,100,4.97,VN,2022-04-30 04:03:53
250,Chanute,37.6792,-95.4572,75.31,64,100,12.66,US,2022-04-30 04:05:44
251,Hue,16.4667,107.6,80.71,89,75,8.05,VN,2022-04-30 04:06:41
252,Kaeo,-35.1,173.7833,62.33,94,56,11.34,NZ,2022-04-30 04:06:42
253,Luderitz,-26.6481,15.1594,54.07,73,0,11.39,NA,2022-04-30 04:06:42
254,Asau,46.4333,26.4,41.95,100,22,3.27,RO,2022-04-30 04:02:24
255,Taoudenni,22.6783,-3.9836,75.72,25,39,17.65,ML,2022-04-30 04:06:43
256,Isangel,-19.55,169.2667,76.8,83,97,21.21,VU,2022-04-30 04:06:43
257,Sinjar,36.3209,41.8754,66.11,60,6,4.7,IQ,2022-04-30 04:06:43
258,Karpathos,35.507,27.2132,62.56,88,95,32.21,GR,2022-04-30 04:06:44
259,Plaster Rock,46.9065,-67.39,34.32,92,100,9.78,CA,2022-04-30 04:06:44
260,Denpasar,-8.65,115.2167,83.86,88,75,5.75,ID,2022-04-30 04:06:45
261,Arak,34.0917,49.6892,56.77,58,75,1.81,IR,2022-04-30 04:06:45
262,Gubkinskiy,64.434,76.5026,23.29,83,45,10.22,RU,2022-04-30 04:06:45
263,Severo-Kurilsk,50.6789,156.125,35.98,84,91,16.98,RU,2022-04-30 04:03:39
264,Agadir,30.4202,-9.5982,61.25,52,63,1.52,MA,2022-04-30 04:05:37
265,Broken Hill,-31.95,141.4333,65.28,41,80,13.65,AU,2022-04-30 04:06:46
266,Jasper,37.2001,-94.3502,74.01,63,0,24.16,US,2022-04-30 04:06:10
267,Plettenberg Bay,-34.0527,23.3716,56.66,84,24,9.64,ZA,2022-04-30 04:06:46
268,Sept-Iles,50.2001,-66.3821,36.05,81,100,5.01,CA,2022-04-30 04:03:59
269,Gallup,35.5281,-108.7426,52.02,15,0,1.99,US,2022-04-30 04:06:47
270,Shu,43.5983,73.7614,71.01,46,100,4.47,KZ,2022-04-30 04:06:47
271,Morro Bay,35.3658,-120.8499,67.19,72,12,7.85,US,2022-04-30 04:03:09
272,Mochicahui,25.9333,-108.9333,67.82,50,27,5.28,MX,2022-04-30 04:06:48
273,Machico,32.7,-16.7667,63.01,66,20,2.3,PT,2022-04-30 04:06:48
274,Kidal,18.4411,1.4078,81.03,8,3,7.49,ML,2022-04-30 04:06:48
275,San Quintin,30.4833,-115.95,57.87,83,0,6.46,MX,2022-04-30 04:06:49
276,Neiafu,-18.65,-173.9833,81.28,89,75,8.05,TO,2022-04-30 04:07:04
277,Saint-Jean-De-Maurienne,45.1667,6.5833,32.14,93,90,3.0,FR,2022-04-30 04:07:04
278,Boca Do Acre,-8.7522,-67.3978,73.83,84,98,1.72,BR,2022-04-30 04:07:05
279,Salunayan,7.1544,124.4975,90.3,60,92,2.51,PH,2022-04-30 04:07:05
280,San Patricio,28.017,-97.5169,77.09,86,6,14.92,US,2022-04-30 04:07:06
281,Rocha,-34.4833,-54.3333,44.46,83,0,3.33,UY,2022-04-30 04:07:06
282,Sechura,-5.5569,-80.8222,69.06,76,100,14.23,PE,2022-04-30 04:04:11
283,San Pedro,14.35,121.0167,92.43,64,75,8.05,PH,2022-04-30 04:07:07
284,Hami,42.8,93.45,66.42,12,1,6.64,CN,2022-04-30 04:07:07
285,Ponta Do Sol,32.6667,-17.1,63.01,53,29,2.51,PT,2022-04-30 04:07:07
286,Macamic,48.7502,-78.9996,30.51,89,42,5.68,CA,2022-04-30 04:07:08
287,Yulara,-25.2406,130.9889,73.24,43,98,17.27,AU,2022-04-30 04:07:08
288,Floirac,44.8324,-0.5141,53.91,95,100,4.61,FR,2022-04-30 04:07:09
289,Haines Junction,60.7522,-137.5108,39.43,81,34,4.16,CA,2022-04-30 04:07:09
290,Ukiah,39.1502,-123.2078,53.96,76,94,5.3,US,2022-04-30 04:05:16
291,Xining,36.6167,101.7667,37.6,76,100,7.14,CN,2022-04-30 04:07:09
292,Chegdomyn,51.1167,133.0167,51.4,36,93,2.89,RU,2022-04-30 04:07:10
293,Tiznit,29.5833,-9.5,63.84,46,26,3.67,MA,2022-04-30 04:07:10
294,Namatanai,-3.6667,152.4333,84.45,69,47,1.01,PG,2022-04-30 04:07:11
295,Mayumba,-3.432,10.6554,74.59,91,100,15.73,GA,2022-04-30 04:07:11
296,Rabo De Peixe,37.8,-25.5833,65.28,87,75,9.22,PT,2022-04-30 04:07:11
297,Dingle,10.9995,122.6711,87.39,64,86,10.42,PH,2022-04-30 04:07:12
298,Andros Town,24.7,-77.7667,73.36,63,0,12.84,BS,2022-04-30 04:07:12
299,Emba,48.8264,58.1442,63.34,56,70,11.63,KZ,2022-04-30 04:07:12
300,Geraldton,-28.7667,114.6,79.21,31,0,14.97,AU,2022-04-30 04:03:53
301,Buala,-8.145,159.5921,83.05,75,100,4.16,SB,2022-04-30 04:07:13
302,Santa Catarina De Tepehuanes,25.35,-105.7333,55.81,27,0,6.8,MX,2022-04-30 04:07:13
303,Lebanon,36.2081,-86.2911,70.97,76,84,5.77,US,2022-04-30 04:02:58
304,Camacha,33.0833,-16.3333,58.42,88,20,4.61,PT,2022-04-30 04:03:48
305,Nouadhibou,20.931,-17.0347,64.06,84,40,19.51,MR,2022-04-30 04:07:14
306,Nenjiang,49.1833,125.2167,37.49,78,100,18.95,CN,2022-04-30 04:07:14
307,Vostok,46.4856,135.8833,54.59,24,100,1.79,RU,2022-04-30 04:07:15
308,Claresholm,50.0333,-113.5852,47.21,60,62,4.59,CA,2022-04-30 04:07:15
309,San Cristobal,7.7669,-72.225,73.58,96,78,3.36,VE,2022-04-30 04:07:15
310,Olafsvik,64.8945,-23.7142,43.48,90,52,7.65,IS,2022-04-30 04:07:16
311,Vila Franca Do Campo,37.7167,-25.4333,66.2,95,30,7.76,PT,2022-04-30 04:03:11
312,Necochea,-38.5473,-58.7368,44.19,63,28,7.09,AR,2022-04-30 04:07:16
313,Mountain Home,43.133,-115.6912,47.68,57,0,0.0,US,2022-04-30 04:05:34
314,Bucerias,20.75,-105.3333,71.58,83,0,0.0,MX,2022-04-30 04:05:37
315,George,-33.963,22.4617,56.98,78,51,8.12,ZA,2022-04-30 04:07:17
316,Kupang,-10.1667,123.5833,86.76,59,71,1.95,ID,2022-04-30 04:06:57
317,Coquimbo,-29.9533,-71.3436,56.89,87,71,3.74,CL,2022-04-30 04:03:16
318,Chokurdakh,70.6333,147.9167,22.08,89,17,9.04,RU,2022-04-30 04:07:17
319,La Ronge,55.1001,-105.2842,35.89,90,84,3.6,CA,2022-04-30 04:07:18
320,Bardsir,29.9227,56.5743,68.83,33,98,13.31,IR,2022-04-30 04:07:18
321,Port Lincoln,-34.7333,135.8667,64.2,57,42,13.89,AU,2022-04-30 04:07:19
322,Jablah,35.3614,35.9256,69.76,62,8,12.01,SY,2022-04-30 04:07:34
323,Te Anau,-45.4167,167.7167,59.32,71,100,5.35,NZ,2022-04-30 04:07:34
324,Tessalit,20.1986,1.0114,75.87,10,0,3.22,ML,2022-04-30 04:07:35
325,Mollendo,-17.0231,-72.0147,65.14,86,68,7.61,PE,2022-04-30 04:07:35
326,Bambanglipuro,-7.95,110.2833,86.49,66,12,3.91,ID,2022-04-30 04:07:36
327,Victoria,22.2855,114.1577,80.96,85,100,18.01,HK,2022-04-30 04:06:11
328,Barcelona,41.3888,2.159,62.33,75,0,8.05,ES,2022-04-30 04:07:35
329,Moose Factory,51.2585,-80.6094,31.32,90,5,5.06,CA,2022-04-30 04:07:36
330,North Platte,41.1239,-100.7654,51.69,86,100,24.0,US,2022-04-30 04:07:36
331,Salaspils,56.8601,24.3654,37.27,70,5,3.51,LV,2022-04-30 04:07:37
332,Syracuse,37.0881,15.2792,55.31,61,60,2.19,IT,2022-04-30 04:07:37
333,Baramati,18.15,74.5833,95.11,18,3,12.8,IN,2022-04-30 04:07:38
334,Bowen,-20.0167,148.2333,78.26,75,46,15.55,AU,2022-04-30 04:07:38
335,Henties Bay,-22.116,14.2845,59.85,84,0,7.47,NA,2022-04-30 04:07:38
336,Orange,33.7,-117.7675,68.88,72,0,3.44,US,2022-04-30 04:06:22
337,Tiksi,71.6872,128.8694,34.21,71,100,16.53,RU,2022-04-30 04:07:39
338,Mufulira,-12.5498,28.2407,60.1,81,100,3.27,ZM,2022-04-30 04:07:39
339,Oranjemund,-28.55,16.4333,50.94,86,0,5.73,NA,2022-04-30 04:07:40
340,Nantucket,41.2835,-70.0995,48.31,60,100,12.66,US,2022-04-30 04:06:35
341,Pangoa,-12.1167,-73.0,66.94,98,100,2.73,PE,2022-04-30 04:07:40
342,Komsomolskiy,40.4272,71.7189,74.12,43,33,2.3,UZ,2022-04-30 04:07:41
343,Farafangana,-22.8167,47.8333,65.97,85,2,6.58,MG,2022-04-30 04:07:41
344,Iberia,29.9502,-91.7507,68.97,77,0,3.44,US,2022-04-30 04:07:41
345,Cap Malheureux,-19.9842,57.6142,78.48,68,6,4.0,MU,2022-04-30 04:07:42
346,Kapoeta,4.7717,33.5903,74.64,77,100,5.19,SS,2022-04-30 04:07:42
347,Baglung,28.2719,83.5898,85.14,28,5,6.2,NP,2022-04-30 04:07:42
348,Ola,59.5833,151.2833,48.15,57,13,8.52,RU,2022-04-30 04:07:43
349,Chifeng,42.2683,118.9636,54.03,13,0,22.06,CN,2022-04-30 04:07:43
350,Hovd,48.0056,91.6419,56.62,16,0,5.55,MN,2022-04-30 04:07:44
351,Nanchang,28.6833,115.8833,60.98,78,100,7.76,CN,2022-04-30 04:07:44
352,Surt,31.2089,16.5887,62.2,85,75,9.98,LY,2022-04-30 04:07:44
353,Stephenville,32.2207,-98.2023,75.99,72,0,13.8,US,2022-04-30 04:07:45
354,Hawera,-39.5917,174.2833,61.14,64,3,4.0,NZ,2022-04-30 04:07:45
355,Heinola,61.2056,26.0381,28.0,64,11,6.17,FI,2022-04-30 04:07:45
356,Kyabe,9.4515,18.9449,80.83,61,100,6.58,TD,2022-04-30 04:07:46
357,Cayenne,4.9333,-52.3333,82.09,1,75,6.91,GF,2022-04-30 04:05:20
358,Zaysan,47.4667,84.8667,68.05,17,35,0.74,KZ,2022-04-30 04:07:46
359,Erzin,36.9559,36.2,70.27,57,99,6.96,TR,2022-04-30 04:07:47
360,Saint-Pierre,-21.3393,55.4781,78.3,71,0,0.0,RE,2022-04-30 04:07:47
361,Fort Saint James,54.4333,-124.25,39.61,73,84,4.25,CA,2022-04-30 04:07:47
362,Kolkwitz,51.75,14.25,45.66,75,100,6.6,DE,2022-04-30 04:07:48
363,Goderich,43.7501,-81.7165,39.9,69,31,9.86,CA,2022-04-30 04:07:48
364,Ngunguru,-35.6167,174.5,65.05,68,29,13.65,NZ,2022-04-30 04:07:49
365,Krasnyy Chikoy,50.3643,108.7512,50.31,51,100,11.05,RU,2022-04-30 04:05:33
366,Marsh Harbour,26.5412,-77.0636,73.6,77,99,23.4,BS,2022-04-30 04:05:42
367,Canberra,-35.2835,149.1281,64.69,49,57,13.8,AU,2022-04-30 04:03:24
368,Westport,41.1415,-73.3579,52.56,33,0,5.75,US,2022-04-30 04:08:04
369,Vao,-22.6667,167.4833,74.01,76,100,24.92,NC,2022-04-30 04:08:05
370,Zhovti Vody,48.3473,33.5003,45.93,86,84,6.69,UA,2022-04-30 04:08:05
371,Sorong,-0.8833,131.25,83.97,72,84,8.39,ID,2022-04-30 04:05:23
372,Soyo,-6.1349,12.3689,74.14,96,100,12.3,AO,2022-04-30 04:08:05
373,Lagoa,39.05,-27.9833,60.73,86,26,19.01,PT,2022-04-30 04:08:06
374,Padang,-0.9492,100.3543,87.85,65,82,4.54,ID,2022-04-30 04:08:06
375,Palmer,42.1584,-72.3287,44.2,51,0,0.0,US,2022-04-30 04:08:07
376,Coihaique,-45.5752,-72.0662,39.15,87,85,4.61,CL,2022-04-30 04:04:57
377,Dalvik,65.9702,-18.5286,42.85,81,39,9.37,IS,2022-04-30 04:08:07
378,Machacamarca,-18.1667,-67.0333,49.53,69,92,5.12,BO,2022-04-30 04:08:07
379,Salta,-24.7859,-65.4117,55.58,83,100,4.0,AR,2022-04-30 04:05:18
380,Hay River,60.8156,-115.7999,23.68,91,7,5.01,CA,2022-04-30 04:06:39
381,Sangar,63.9242,127.4739,35.02,79,54,8.9,RU,2022-04-30 04:08:08
382,Clyde River,70.4692,-68.5914,10.63,72,75,13.8,CA,2022-04-30 04:08:08
383,Anan,33.9167,134.65,60.08,51,80,11.72,JP,2022-04-30 04:08:09
384,Shimoda,34.6667,138.95,60.1,61,70,13.22,JP,2022-04-30 04:08:09
385,Kousseri,12.0769,15.0306,88.05,40,96,6.78,CM,2022-04-30 04:08:09
386,Pascagoula,30.3658,-88.5561,73.45,94,40,4.61,US,2022-04-30 04:04:29
387,Mitsamiouli,-11.3847,43.2844,80.08,78,100,12.35,KM,2022-04-30 04:08:10
388,Izumo,35.3667,132.7667,60.39,50,10,8.05,JP,2022-04-30 04:08:10
389,Barranquilla,10.9639,-74.7964,80.38,89,20,11.5,CO,2022-04-30 04:04:23
390,Tautira,-17.7333,-149.15,80.42,74,24,18.37,PF,2022-04-30 04:08:11
391,Mirabad,30.4362,61.8383,88.29,18,14,6.98,AF,2022-04-30 04:08:11
392,Thanh Hoa,19.8,105.7667,87.93,60,100,9.6,VN,2022-04-30 04:08:12
393,Avera,33.194,-82.5271,66.25,68,48,7.4,US,2022-04-30 04:05:22
394,Ulladulla,-35.35,150.4667,68.77,49,100,9.66,AU,2022-04-30 04:08:12
395,Luanda,-8.8368,13.2343,74.84,93,100,6.06,AO,2022-04-30 04:08:12
396,Cidreira,-30.1811,-50.2056,60.12,65,0,3.85,BR,2022-04-30 04:08:13
397,Jelgava,56.65,23.7128,37.44,74,8,3.42,LV,2022-04-30 04:08:13
398,Lerwick,60.1545,-1.1494,42.8,75,100,7.27,GB,2022-04-30 04:08:13
399,Lethem,3.3803,-59.7968,77.95,77,71,4.97,GY,2022-04-30 04:08:14
400,Teknaf,20.8624,92.3058,86.94,64,87,6.08,BD,2022-04-30 04:08:14
401,Buldana,20.5333,76.1833,93.29,20,0,15.88,IN,2022-04-30 04:08:15
402,Margate,51.3813,1.3862,47.3,77,29,5.99,GB,2022-04-30 04:08:15
403,Butterworth,5.3991,100.3638,89.64,70,40,5.75,MY,2022-04-30 04:08:15
404,Champerico,14.3,-91.9167,83.93,69,72,4.03,GT,2022-04-30 04:08:16
405,Berlevag,70.8578,29.0864,26.4,65,100,24.65,NO,2022-04-30 04:08:16
406,Marihatag,8.7936,126.2969,85.95,65,65,10.09,PH,2022-04-30 04:08:17
407,Dalbandin,28.8947,64.4101,91.08,12,0,4.32,PK,2022-04-30 04:08:17
408,Kotka,60.4664,26.9458,31.26,60,2,7.27,FI,2022-04-30 04:08:17
409,Ozinki,51.1786,49.6769,47.89,58,100,7.78,RU,2022-04-30 04:08:18
410,Sri Aman,1.2376,111.4621,94.33,51,69,0.92,MY,2022-04-30 04:08:18
411,Kushima,31.4583,131.2333,65.7,60,56,9.08,JP,2022-04-30 04:08:34
412,Bull Savanna,17.8868,-77.5902,73.78,84,39,8.21,JM,2022-04-30 04:08:34
413,Balfour,-26.6633,28.5902,47.73,89,53,3.49,ZA,2022-04-30 04:08:34
414,Monrovia,6.3005,-10.7969,79.92,81,87,5.01,LR,2022-04-30 04:04:01
415,Mount Gambier,-37.8333,140.7667,61.77,51,91,12.41,AU,2022-04-30 04:08:35
416,Burns Lake,54.2331,-125.7533,38.5,57,100,1.79,CA,2022-04-30 04:08:35
417,Puerto Escondido,15.85,-97.0667,83.23,69,75,6.91,MX,2022-04-30 04:08:36
418,Araouane,18.9048,-3.5265,76.53,8,0,6.62,ML,2022-04-30 04:08:36
419,Miyazu,35.5333,135.1833,54.99,55,11,7.54,JP,2022-04-30 04:08:36
420,Kitgum,3.2783,32.8867,64.22,97,100,3.42,UG,2022-04-30 04:08:37
421,Katete,-0.7818,29.7544,57.24,97,100,3.11,UG,2022-04-30 04:08:37
422,Touros,-5.1989,-35.4608,75.16,83,97,9.22,BR,2022-04-30 04:06:41
423,Camacupa,-12.0167,17.4833,55.56,83,28,4.5,AO,2022-04-30 04:08:38
424,Leningradskiy,69.3833,178.4167,20.34,88,98,15.17,RU,2022-04-30 04:08:38
425,Kailua,21.4022,-157.7394,80.58,77,75,13.8,US,2022-04-30 04:08:38
426,Morehead,37.2711,-87.1764,68.79,71,0,5.75,US,2022-04-30 04:08:39
427,Boysun,38.2061,67.1986,73.31,37,2,2.48,UZ,2022-04-30 04:08:39
428,Puerto Leguizamo,-0.1934,-74.7819,70.2,99,95,1.1,CO,2022-04-30 04:08:40
429,Kanata,45.3159,-75.8985,40.98,46,0,7.29,CA,2022-04-30 04:08:06
430,Agua Verde,22.9,-106.05,71.69,64,0,7.56,MX,2022-04-30 04:08:40
431,High Level,58.5169,-117.136,35.78,98,100,4.79,CA,2022-04-30 04:05:05
432,Nguruka,-5.1092,31.0419,63.97,90,96,0.63,TZ,2022-04-30 04:08:40
433,Verkhoyansk,67.5447,133.385,30.06,79,56,7.76,RU,2022-04-30 04:08:41
434,Anadyr,64.75,177.4833,34.3,86,0,13.42,RU,2022-04-30 04:08:41
435,Teguldet,57.3064,88.1667,66.54,50,99,8.79,RU,2022-04-30 04:08:41
436,Naryan-Mar,67.6713,53.087,18.37,86,39,18.01,RU,2022-04-30 04:08:42
437,Douglas,41.3,-96.167,55.6,95,100,14.97,US,2022-04-30 04:04:05
438,Vaitape,-16.5167,-151.75,81.34,72,13,17.02,PF,2022-04-30 04:08:42
439,Amazar,53.858,120.875,44.42,29,94,4.16,RU,2022-04-30 04:08:43
440,Billings,45.7833,-108.5007,45.28,81,75,3.44,US,2022-04-30 04:08:43
441,Conceicao Do Araguaia,-8.2578,-49.2647,74.52,78,60,2.93,BR,2022-04-30 04:08:44
442,Winchester,51.0651,-1.3187,40.42,80,4,1.01,GB,2022-04-30 04:05:44
443,Panlaitan,12.1191,119.8486,86.13,70,100,10.94,PH,2022-04-30 04:08:44
444,Carballo,43.213,-8.691,53.87,92,52,2.53,ES,2022-04-30 04:04:32
445,Harper,4.375,-7.7169,79.93,83,53,7.4,LR,2022-04-30 04:08:44
446,Ruwi,23.5996,58.5507,92.89,37,22,4.97,OM,2022-04-30 04:08:45
447,Gondanglegi,-7.7479,112.0132,85.64,73,41,6.78,ID,2022-04-30 04:03:46
448,Tsabong,-26.0217,22.401,62.19,66,31,5.95,BW,2022-04-30 04:08:45
449,Faya,18.3851,42.4509,63.12,49,36,2.89,SA,2022-04-30 04:08:46
450,Nkhotakota,-12.9274,34.2961,66.87,80,7,6.2,MW,2022-04-30 04:08:46
451,Edmundston,47.3737,-68.3251,34.93,80,40,12.66,CA,2022-04-30 04:08:46
452,Gizo,-8.103,156.8419,84.29,69,56,5.66,SB,2022-04-30 04:03:53
453,Kavieng,-2.5744,150.7967,84.15,70,89,3.8,PG,2022-04-30 04:08:47
454,Bara,10.3744,10.7288,81.66,55,100,6.78,NG,2022-04-30 04:08:47
455,North Bend,43.4065,-124.2243,53.24,96,100,4.61,US,2022-04-30 04:08:48
456,Coahuayana,18.7333,-103.6833,70.79,84,11,1.86,MX,2022-04-30 04:09:03
457,Lorengau,-2.0226,147.2712,83.28,74,85,2.91,PG,2022-04-30 04:09:03
458,Darhan,49.4867,105.9228,58.46,24,87,7.99,MN,2022-04-30 04:09:04
459,Pundaguitan,6.3711,126.1689,81.41,77,99,3.58,PH,2022-04-30 04:09:04
460,Bubaque,11.2833,-15.8333,76.57,69,94,15.14,GW,2022-04-30 04:09:05
461,Bathsheba,13.2167,-59.5167,81.21,89,75,13.8,BB,2022-04-30 04:09:05
462,Port Victoria,0.0939,33.9756,66.85,85,100,7.05,KE,2022-04-30 04:09:05
463,Copiapo,-27.3667,-70.3333,51.49,74,100,2.68,CL,2022-04-30 04:09:06
464,Axim,4.8699,-2.2405,78.58,88,97,5.26,GH,2022-04-30 04:05:13
465,Ternate,0.8,127.4,82.87,72,96,1.48,ID,2022-04-30 04:09:06
466,Buchanan,5.8808,-10.0467,78.71,86,90,4.65,LR,2022-04-30 04:09:07
467,Thinadhoo,0.5333,72.9333,85.57,66,82,9.84,MV,2022-04-30 04:09:07
468,Tiarei,-17.5333,-149.3333,84.0,76,14,19.6,PF,2022-04-30 04:09:08
469,Huntingdon,52.3305,-0.1865,38.03,91,0,2.93,GB,2022-04-30 04:05:49
470,Venezuela,8.0,-66.0,80.15,73,100,6.02,VE,2022-04-30 04:09:08
471,Korla,41.7597,86.1469,62.35,26,0,7.43,CN,2022-04-30 04:09:08
472,Lieksa,63.3167,30.0167,26.31,75,9,6.08,FI,2022-04-30 04:09:09
473,Kichera,55.9375,110.0997,32.38,95,100,5.53,RU,2022-04-30 04:09:09
474,Honiara,-9.4333,159.95,83.84,75,100,2.26,SB,2022-04-30 04:07:49
475,Xai-Xai,-25.0519,33.6442,63.99,82,0,9.42,MZ,2022-04-30 04:09:10
476,Requena,39.4883,-1.1004,50.86,72,51,5.1,ES,2022-04-30 04:09:10
477,Fort Nelson,58.8053,-122.7002,31.68,98,100,1.54,CA,2022-04-30 04:05:57
478,Pangkalanbuun,-2.6833,111.6167,95.2,46,52,1.79,ID,2022-04-30 04:09:11
479,Chicontepec,20.9667,-98.1667,67.93,94,12,3.31,MX,2022-04-30 04:09:11
480,Lebu,-37.6167,-73.65,48.18,80,0,14.41,CL,2022-04-30 04:04:39
481,Usinsk,65.9939,57.5281,22.12,80,92,12.28,RU,2022-04-30 04:09:11
482,Anloga,5.7947,0.8973,81.75,76,100,6.53,GH,2022-04-30 04:09:12
483,Baykit,61.67,96.37,43.16,76,66,12.35,RU,2022-04-30 04:09:12
484,Abnub,27.2696,31.1511,80.49,11,4,7.45,EG,2022-04-30 04:09:13
485,Vestmanna,62.1564,-7.1664,43.72,93,100,6.91,FO,2022-04-30 04:09:13
486,Constitucion,-35.3333,-72.4167,51.75,62,18,6.44,CL,2022-04-30 04:09:13
487,Cockburn Town,21.4612,-71.1419,76.93,72,100,19.57,TC,2022-04-30 04:09:14
488,Sihora,23.4833,80.1167,96.13,10,41,13.47,IN,2022-04-30 04:09:14
489,Gat,31.61,34.7642,86.77,23,29,16.98,IL,2022-04-30 04:09:15
490,Nemuro,43.3236,145.575,41.45,61,37,13.98,JP,2022-04-30 04:09:15
491,Ati,13.2154,18.3353,85.03,33,92,3.74,TD,2022-04-30 04:09:15
492,Post Falls,47.718,-116.9516,48.85,68,0,6.91,US,2022-04-30 04:09:16
493,Yerbogachen,61.2767,108.0108,42.8,98,100,9.6,RU,2022-04-30 04:09:16
494,Gimli,50.6336,-96.9907,38.41,97,100,8.61,CA,2022-04-30 04:08:15
495,Panama City,8.9936,-79.5197,80.44,86,20,3.44,PA,2022-04-30 04:09:17
496,Aklavik,68.2191,-135.0107,30.09,94,45,8.23,CA,2022-04-30 04:09:17
497,Noyabrsk,63.1994,75.4507,25.84,82,73,6.71,RU,2022-04-30 04:09:17
498,Laguna,38.421,-121.4238,68.14,49,0,8.05,US,2022-04-30 04:09:18
499,Biltine,14.5333,20.9167,83.08,13,72,5.66,TD,2022-04-30 04:09:18
500,Altay,47.8667,88.1167,60.48,36,7,5.21,CN,2022-04-30 04:09:19
501,Tocopilla,-22.092,-70.1979,63.97,73,28,4.03,CL,2022-04-30 04:09:19
502,Den Helder,52.9599,4.7593,48.18,73,100,7.0,NL,2022-04-30 04:09:19
503,Murmashi,68.8154,32.8115,26.42,73,0,7.0,RU,2022-04-30 04:09:20
504,Prince Rupert,54.3161,-130.3201,45.46,75,40,5.37,CA,2022-04-30 04:04:58
505,Havre-Saint-Pierre,50.2334,-63.5986,32.36,93,100,18.41,CA,2022-04-30 04:09:35
506,Mahibadhoo,3.7833,72.9667,86.02,72,100,11.45,MV,2022-04-30 04:09:36
507,Pitlochry,56.7051,-3.7343,44.28,96,99,1.81,GB,2022-04-30 04:09:36
508,Miri,4.4148,114.0089,87.15,65,60,3.91,MY,2022-04-30 04:09:36
509,Takoradi,4.8845,-1.7554,79.21,85,86,5.41,GH,2022-04-30 04:09:37
510,Capusu Mare,46.7833,23.3,41.32,88,35,4.56,RO,2022-04-30 04:09:37
511,Zimmi,7.3153,-11.3061,73.71,96,97,1.41,SL,2022-04-30 04:09:37
512,Saint-Augustin,51.226,-58.6502,36.09,87,100,21.59,CA,2022-04-30 04:09:38
513,Balkhash,46.844,74.9804,65.01,27,0,15.66,KZ,2022-04-30 04:09:38
514,Puerto Baquerizo Moreno,-0.9,-89.6,71.28,91,84,7.94,EC,2022-04-30 04:09:39
515,Honningsvag,70.9821,25.9704,28.15,80,75,18.41,NO,2022-04-30 04:09:39
516,Saint-Joseph,-21.3667,55.6167,77.22,77,20,12.12,RE,2022-04-30 04:09:39
517,Jining,35.405,116.5814,69.01,1,100,16.6,CN,2022-04-30 04:09:40
518,Lavrentiya,65.5833,-171.0,31.62,96,99,8.61,RU,2022-04-30 04:09:40
519,Kursenai,55.985,22.9189,34.05,72,16,4.85,LT,2022-04-30 04:09:40
520,Nalut,30.3333,10.85,64.27,41,99,23.69,LY,2022-04-30 04:09:41
521,Casino,-28.8667,153.05,80.55,57,97,8.05,AU,2022-04-30 04:09:41
522,Pangnirtung,66.1451,-65.7125,1.24,91,18,8.61,CA,2022-04-30 04:09:42
523,Itaituba,-4.2761,-55.9836,72.93,98,100,2.21,BR,2022-04-30 04:09:42
524,Seoul,37.5683,126.9778,63.79,50,100,12.55,KR,2022-04-30 04:05:19
525,Grindavik,63.8424,-22.4338,43.27,87,75,5.75,IS,2022-04-30 04:06:38
526,Kropotkin,45.4375,40.5756,53.98,82,53,11.07,RU,2022-04-30 04:09:42
527,Oyama,36.3,139.8,66.58,27,49,5.73,JP,2022-04-30 04:09:43
528,Peterhead,57.5058,-1.7981,45.0,90,100,11.68,GB,2022-04-30 04:09:43
529,Maningrida,-12.0667,134.2667,89.89,52,54,11.95,AU,2022-04-30 04:09:44
530,Oktyabrskoye,43.0645,44.7417,53.74,93,54,4.47,RU,2022-04-30 04:09:44
531,Robat Karim,35.4846,51.0829,67.86,59,40,16.11,IR,2022-04-30 04:09:44
532,Khandyga,62.6667,135.6,35.64,66,31,2.51,RU,2022-04-30 04:09:45
533,Marienburg,54.0359,19.0266,40.12,86,91,3.67,PL,2022-04-30 04:09:45
534,Diapaga,12.0708,1.7889,83.73,29,61,6.96,BF,2022-04-30 04:09:46
535,Zyryanka,65.75,150.85,26.83,78,96,2.06,RU,2022-04-30 04:09:46
536,Bandipur,27.9333,84.4167,87.39,29,4,2.62,NP,2022-04-30 04:09:46
537,Paso Del Macho,18.9667,-96.7167,76.5,78,96,0.92,MX,2022-04-30 04:09:47
538,Marystown,47.1666,-55.1483,43.86,100,100,8.01,CA,2022-04-30 04:07:37
539,Miramar,25.9873,-80.2323,77.02,84,20,16.11,US,2022-04-30 04:09:47
540,Soligalich,59.0778,42.2864,33.75,89,100,9.08,RU,2022-04-30 04:09:47
541,Pittsburg,38.028,-121.8847,64.69,50,0,9.22,US,2022-04-30 04:09:05
542,Sawtell,-30.3833,153.1,80.19,57,87,11.5,AU,2022-04-30 04:09:48
543,Rawson,-43.3002,-65.1023,48.13,49,42,8.77,AR,2022-04-30 04:09:48
544,Dudinka,69.4058,86.1778,16.63,92,100,12.08,RU,2022-04-30 04:09:49
545,Quang Ngai,15.1167,108.8,84.36,72,67,4.5,VN,2022-04-30 04:06:37
546,Hachinohe,40.5,141.5,59.18,26,20,11.5,JP,2022-04-30 04:09:50
547,Dovolnoye,54.4958,79.6671,71.24,25,84,11.61,RU,2022-04-30 04:09:50
548,Clarence Town,-32.5833,151.7833,66.11,89,100,4.97,AU,2022-04-30 04:09:51
549,Ialibu,-6.2821,143.9935,72.28,45,86,6.02,PG,2022-04-30 04:09:51
550,Ullapool,57.8987,-5.1604,49.35,81,100,4.85,GB,2022-04-30 04:09:52
551,Matara,5.9485,80.5353,87.44,67,87,10.25,LK,2022-04-30 04:09:52
552,Humberto De Campos,-2.5983,-43.4611,74.53,93,84,3.78,BR,2022-04-30 04:09:52
553,Oussouye,12.485,-16.5469,71.28,74,65,11.07,SN,2022-04-30 04:10:08
554,Olinda,-8.0089,-34.8553,76.73,83,40,4.61,BR,2022-04-30 04:10:08
555,Kieta,-6.2167,155.6333,83.16,77,26,3.62,PG,2022-04-30 04:10:09
556,Aviles,43.5547,-5.9248,54.77,89,100,3.44,ES,2022-04-30 04:08:46
557,Elk Point,42.6833,-96.6836,57.36,97,100,14.03,US,2022-04-30 04:10:09
558,Zakamensk,50.3741,103.2863,58.19,26,100,6.46,RU,2022-04-30 04:10:09
559,Preobrazheniye,42.9019,133.9064,48.56,62,100,11.7,RU,2022-04-30 04:10:10
560,Segezha,63.7415,34.3222,25.97,79,17,8.19,RU,2022-04-30 04:10:10
561,Upata,8.0086,-62.3989,75.2,86,62,7.23,VE,2022-04-30 04:10:11
562,Yermakovskoye,53.2831,92.4003,67.28,33,100,3.94,RU,2022-04-30 04:10:11
563,Usak,38.5,29.4167,56.55,79,100,3.09,TR,2022-04-30 04:10:12
564,Borba,-4.3878,-59.5939,73.17,98,100,2.35,BR,2022-04-30 04:10:12
565,Tecoanapa,16.5167,-98.75,80.38,71,2,6.49,MX,2022-04-30 04:10:12
566,Richards Bay,-28.783,32.0377,70.79,83,93,15.03,ZA,2022-04-30 04:10:13
567,Tulun,54.5611,100.5792,65.01,40,100,14.5,RU,2022-04-30 04:10:13
568,Fare,-16.7,-151.0167,80.69,73,2,17.22,PF,2022-04-30 04:10:14
569,Estelle,29.8458,-90.1067,75.2,73,0,5.75,US,2022-04-30 04:10:14
570,Fort-Shevchenko,44.5086,50.263,60.15,76,61,25.32,KZ,2022-04-30 04:10:14
571,Manacapuru,-3.2997,-60.6206,74.79,92,100,5.77,BR,2022-04-30 04:06:59
572,Cruzeiro Do Oeste,-23.785,-53.0733,68.76,90,75,6.53,BR,2022-04-30 04:10:15
573,Grand-Santi,4.25,-54.3833,72.36,99,96,2.71,GF,2022-04-30 04:10:15
574,Tabou,4.423,-7.3528,79.61,85,57,6.91,CI,2022-04-30 04:10:16
575,Wasilla,61.5814,-149.4394,50.18,48,75,25.32,US,2022-04-30 04:10:16
576,Gualeguay,-33.1416,-59.3097,42.84,64,0,6.17,AR,2022-04-30 04:10:16
577,Kruisfontein,-34.0033,24.7314,58.89,82,42,13.6,ZA,2022-04-30 04:10:17
578,Aitape,-3.1374,142.3475,83.68,72,95,5.64,PG,2022-04-30 04:10:17
579,Pirgos,35.1167,25.7178,64.62,63,44,11.27,GR,2022-04-30 04:10:18
580,Sola,-13.8833,167.55,81.43,72,100,3.56,VU,2022-04-30 04:10:18
581,Gustrow,53.7972,12.1734,41.32,81,20,2.3,DE,2022-04-30 04:10:19
582,Bose,45.4612,8.0137,58.21,64,100,3.11,IT,2022-04-30 04:10:19
583,Paceco,37.9787,12.5566,58.57,82,59,5.57,IT,2022-04-30 04:10:19
584,Sakakah,29.9697,40.2064,73.0,43,40,9.4,SA,2022-04-30 04:10:20
585,Vilyuysk,63.7553,121.6247,43.25,74,23,12.68,RU,2022-04-30 04:10:20
586,Kavaratti,10.5669,72.642,85.93,75,100,12.71,IN,2022-04-30 04:10:20
587,Anisoc,1.8658,10.7689,69.73,96,100,0.65,GQ,2022-04-30 04:10:21
588,Shar,49.5886,81.0453,67.44,20,100,18.07,KZ,2022-04-30 04:10:21
589,Alofi,-19.0595,-169.9187,80.67,80,96,15.75,NU,2022-04-30 04:10:22
590,Yenagoa,4.9247,6.2642,76.24,92,99,0.81,NG,2022-04-30 04:10:22
591,Joshimath,30.5667,79.5667,74.8,35,33,6.02,IN,2022-04-30 04:10:22
592,Olga,43.7444,135.2892,54.57,41,40,16.31,RU,2022-04-30 04:10:23
593,Lewistown,40.5992,-77.5714,49.41,29,0,4.61,US,2022-04-30 04:10:23
594,Kurilsk,45.2333,147.8833,34.52,76,100,14.23,RU,2022-04-30 04:10:24
595,Turochak,52.2576,87.1224,64.47,43,100,2.39,RU,2022-04-30 04:10:24
596,Kralendijk,12.15,-68.2667,80.58,89,40,13.8,BQ,2022-04-30 04:10:25
597,Tutoia,-2.7619,-42.2744,78.26,86,100,8.19,BR,2022-04-30 04:10:25
598,Kuntaur,13.6667,-14.8833,76.62,31,34,6.46,GM,2022-04-30 04:10:25
599,Poso,-1.3959,120.7524,85.91,67,55,3.49,ID,2022-04-30 04:10:41
600,Arequipa,-16.3989,-71.535,62.28,39,93,0.96,PE,2022-04-30 04:10:41
601,Simbahan,6.3032,120.5836,82.45,75,100,4.23,PH,2022-04-30 04:10:42
602,Pisco,-13.7,-76.2167,65.01,82,46,1.14,PE,2022-04-30 04:10:42
603,Saint Anthony,45.0205,-93.218,54.09,85,100,21.85,US,2022-04-30 04:10:42
604,Voh,-20.9667,164.7,77.11,71,74,7.85,NC,2022-04-30 04:10:43
605,Rantepao,-2.9701,119.8978,84.31,56,69,4.52,ID,2022-04-30 04:10:43
606,Junagarh,19.8667,82.9333,104.41,16,25,10.04,IN,2022-04-30 04:09:26
607,Garowe,8.4054,48.4845,77.94,76,63,7.14,SO,2022-04-30 04:06:50
608,Kencong,-8.2833,113.3667,86.43,68,90,2.8,ID,2022-04-30 04:10:44
609,Port Said,31.2565,32.2841,70.07,52,39,16.13,EG,2022-04-30 04:10:44
610,Taylorville,39.5489,-89.2945,64.38,63,40,18.41,US,2022-04-30 04:06:50
611,Celendin,-6.8703,-78.1517,50.29,89,100,1.28,PE,2022-04-30 04:10:44
612,Dunedin,-45.8742,170.5036,58.8,73,87,11.01,NZ,2022-04-30 04:10:45
613,Tura,25.5198,90.2201,83.41,58,98,2.75,IN,2022-04-30 04:10:45
614,Pokhara,28.2333,83.9833,86.2,29,7,6.4,NP,2022-04-30 04:10:46
615,Quatre Cocos,-20.2078,57.7625,78.1,69,5,9.95,MU,2022-04-30 04:10:46
616,Miandrivazo,-19.5167,45.4667,73.18,88,71,1.1,MG,2022-04-30 04:10:46
617,Narrabri,-30.3167,149.7833,59.52,88,100,8.05,AU,2022-04-30 04:10:47
618,Omboue,-1.5746,9.2618,77.09,91,100,2.91,GA,2022-04-30 04:10:47
619,Smolenka,52.1352,113.4974,48.27,34,100,8.95,RU,2022-04-30 04:10:48
620,Belomorsk,64.5232,34.7668,29.5,73,53,8.63,RU,2022-04-30 04:10:48
621,Opuwo,-18.0607,13.84,70.14,48,77,5.46,NA,2022-04-30 04:10:48
622,Kautokeino,69.0125,23.0412,16.25,89,36,3.62,NO,2022-04-30 04:10:49
623,Ust-Ishim,57.6935,71.1665,40.12,57,51,7.54,RU,2022-04-30 04:10:49
624,Iralaya,15.0,-83.2333,77.92,83,98,8.68,HN,2022-04-30 04:10:50
625,Mandalgovi,45.7625,106.2708,50.97,22,25,15.97,MN,2022-04-30 04:10:50
626,Serenje,-13.2325,30.2352,53.11,96,14,2.53,ZM,2022-04-30 04:10:50
627,Hauterive,46.0901,3.4459,45.36,96,99,0.85,FR,2022-04-30 04:10:51
628,Gornopravdinsk,60.05,69.9,36.43,49,27,6.26,RU,2022-04-30 04:10:51
629,Presidencia Roque Saenz Pena,-26.7852,-60.4388,61.16,59,99,6.62,AR,2022-04-30 04:10:51
630,Port Moresby,-9.4431,147.1797,84.96,67,99,12.17,PG,2022-04-30 04:10:52
631,Solnechnyy,50.7214,136.6319,41.02,59,39,5.93,RU,2022-04-30 04:10:52
632,Pacific Grove,36.6177,-121.9166,56.88,75,0,11.99,US,2022-04-30 04:10:53
633,Kambove,-10.8764,26.5969,61.88,82,100,3.53,CD,2022-04-30 04:10:53
634,Abu Dhabi,24.4667,54.3667,86.02,60,0,11.5,AE,2022-04-30 04:10:54
635,Half Moon Bay,37.4636,-122.4286,59.34,64,0,18.41,US,2022-04-30 04:09:20
636,Biak,-0.9131,122.8766,81.36,76,93,1.45,ID,2022-04-30 04:10:55
637,Vilhena,-12.7406,-60.1458,71.69,59,65,3.56,BR,2022-04-30 04:08:01
638,Waingapu,-9.6567,120.2641,85.98,67,100,9.4,ID,2022-04-30 04:10:55
639,Darnah,32.767,22.6367,61.79,74,0,17.69,LY,2022-04-30 04:10:55
640,Masyaf,35.0653,36.3406,63.19,66,4,7.47,SY,2022-04-30 04:10:56
641,Derzhavinsk,51.1,66.3167,68.79,30,78,4.65,KZ,2022-04-30 04:10:56
642,Cotusca,48.1333,26.85,46.58,88,55,0.89,RO,2022-04-30 04:10:57
643,Soledade,-28.8183,-52.5103,46.62,90,0,6.38,BR,2022-04-30 04:07:08
644,Maarianhamina,60.0973,19.9348,30.06,93,0,1.14,AX,2022-04-30 04:10:57
645,Dosso,13.049,3.1937,81.21,13,91,4.81,NE,2022-04-30 04:10:57
646,Benghazi,32.1167,20.0667,64.38,67,4,11.99,LY,2022-04-30 04:10:58
647,Taseyevo,57.2169,94.8978,65.12,60,100,7.94,RU,2022-04-30 04:10:58
648,Hammerfest,70.6634,23.6821,27.05,93,40,3.44,NO,2022-04-30 04:11:13
649,Cocachacra,-17.0883,-71.7575,65.37,85,70,4.16,PE,2022-04-30 04:11:14
650,Oudtshoorn,-33.5907,22.2014,51.51,89,10,1.45,ZA,2022-04-30 04:11:14
651,Caruray,10.3094,119.0128,86.32,72,100,1.21,PH,2022-04-30 04:11:15
652,Yakeshi,49.2833,120.7333,42.89,26,26,15.1,CN,2022-04-30 04:11:15
653,Newport,51.5877,-2.9984,40.62,84,55,5.79,GB,2022-04-30 04:11:15
654,Sinazongwe,-17.2614,27.4618,65.55,67,1,4.21,ZM,2022-04-30 04:11:16
655,Anito,12.4497,125.2886,85.95,67,93,7.65,PH,2022-04-30 04:11:16
656,Halifax,44.6453,-63.5724,40.89,96,100,1.01,CA,2022-04-30 04:07:48
657,Burnie,-41.0667,145.9167,61.92,54,21,17.58,AU,2022-04-30 04:11:17
658,Morondava,-20.2833,44.2833,74.57,78,0,3.78,MG,2022-04-30 04:11:17
659,Shelburne,44.0787,-80.2041,34.3,63,1,3.96,CA,2022-04-30 04:11:17
660,Palmerston North,-40.35,175.6167,66.51,63,0,1.99,NZ,2022-04-30 04:11:18
